City_ID,City,Latitude,Longitude,Max Temperature (C),Humidity (%),Cloudiness (%),Wind Speed (m/s),Country,Date
0,monmouth,40.3001,-74.1663,13.9,55,4,2.36,US,1698110996
1,san antonio,29.4241,-98.4936,26.86,75,75,7.72,US,1698110894
2,adamstown,-25.066,-130.1015,22.78,81,100,4.99,PN,1698111183
3,nantucket,41.2835,-70.0995,13.03,77,100,1.54,US,1698110987
4,grytviken,-54.2811,-36.5092,-3.52,66,7,4.45,GS,1698111183
5,blackmans bay,-43.0167,147.3167,17.63,64,100,0.89,AU,1698111184
6,margaret river,-33.95,115.0667,16.42,36,100,3.87,AU,1698111184
7,constantia,44.1833,28.65,16.5,63,95,1.71,RO,1698111184
8,port-aux-francais,-49.35,70.2167,2.09,67,89,12.99,TF,1698111184
9,calvinia,-31.4707,19.776,9.31,83,0,2.28,ZA,1698111184
10,dryden,49.7833,-92.7503,9.16,100,100,2.57,CA,1698111184
11,gizo,-8.103,156.8419,26.82,83,100,5.06,SB,1698111184
12,saipan,15.1355,145.701,32.39,70,40,7.72,MP,1698111185
13,edinburgh of the seven seas,-37.0676,-12.3116,12.93,76,97,5.38,SH,1698111185
14,queenstown,-31.8976,26.8753,11.11,82,1,1.75,ZA,1698111185
15,ribeira grande,38.5167,-28.7,20.99,97,100,4.02,PT,1698111185
16,novo aripuana,-5.1206,-60.3797,23.78,90,100,1.48,BR,1698111185
17,kone,-21.0595,164.8658,24.62,69,95,3.21,NC,1698111185
18,hawaiian paradise park,19.5933,-154.9731,27.71,81,100,2.57,US,1698111185
19,lebu,-37.6167,-73.65,10.26,75,81,6.29,CL,1698111185
20,tazovsky,67.4667,78.7,-4.89,88,15,3.46,RU,1698111185
21,hithadhoo,-0.6,73.0833,27.06,77,100,5.96,MV,1698111186
22,susuman,62.7833,148.1667,-12.68,92,94,0.92,RU,1698111186
23,stanley,54.868,-1.6985,9.32,95,100,1.54,GB,1698111186
24,vorgashor,67.5833,63.95,-11.23,99,98,0.7,RU,1698111186
25,wailua homesteads,22.0669,-159.378,27.85,75,75,5.66,US,1698111186
26,gamba,-2.65,10.0,25.01,88,100,2.47,GA,1698111186
27,invercargill,-46.4,168.35,15.57,70,100,3.13,NZ,1698111080
28,new norfolk,-42.7826,147.0587,18.29,35,100,5.46,AU,1698111186
29,bethel,41.3712,-73.414,10.17,81,0,0.0,US,1698111148
30,talnakh,69.4865,88.3972,-3.77,85,100,1.4,RU,1698111187
31,nanga eboko,4.6833,12.3667,20.56,98,100,0.55,CM,1698111187
32,lata,40.1629,-8.3327,10.6,93,41,1.72,PT,1698111187
33,ola,59.5833,151.2833,0.08,68,99,1.06,RU,1698111187
34,ketchikan,55.3422,-131.6461,4.26,48,100,3.6,US,1698110965
35,yellowknife,62.456,-114.3525,-3.1,89,75,7.72,CA,1698111187
36,rikaze,29.25,88.8833,2.75,42,0,1.22,CN,1698111187
37,el granada,37.5027,-122.4694,19.7,83,75,8.75,US,1698111187
38,jamestown,42.097,-79.2353,7.8,84,0,1.54,US,1698111039
39,chibougamau,49.9168,-74.3659,0.79,86,100,3.09,CA,1698111188
40,changji,44.0167,87.3167,9.44,71,100,3.0,CN,1698111188
41,buchanan,5.8808,-10.0467,24.96,90,60,1.89,LR,1698111188
42,nar'yan-mar,67.6713,53.087,-1.03,91,100,6.1,RU,1698111188
43,anadyr,64.75,177.4833,3.28,86,0,4.0,RU,1698111188
44,antonio enes,-16.2325,39.9086,24.01,82,96,4.99,MZ,1698111188
45,iskateley,67.6803,53.1512,-1.06,90,100,6.06,RU,1698111188
46,ushuaia,-54.8,-68.3,9.81,57,0,2.06,AR,1698111086
47,ust-nera,64.5667,143.2,-11.04,93,68,2.62,RU,1698111189
48,pisco,-13.7,-76.2167,19.45,88,0,8.23,PE,1698111189
49,puerto natales,-51.7236,-72.4875,5.91,93,70,1.67,CL,1698111189
50,chardara,41.2547,67.9692,10.06,66,3,2.69,KZ,1698111189
51,bardai,11.65,7.2333,21.79,22,97,3.61,NG,1698111189
52,iqaluit,63.7506,-68.5145,-1.15,92,100,9.26,CA,1698111013
53,waitangi,-43.9535,-176.5597,12.68,65,15,3.58,NZ,1698111189
54,alamosa,37.4695,-105.87,12.99,30,0,4.12,US,1698111181
55,princeville,45.7668,-61.2985,7.82,84,100,2.57,CA,1698111189
56,wewak,-3.5534,143.6268,28.04,79,100,1.0,PG,1698111190
57,howrah,22.5892,88.3103,24.0,88,75,3.09,IN,1698111190
58,west island,-12.1568,96.8225,26.99,69,40,5.14,CC,1698111190
59,kismayo,-0.3582,42.5454,26.51,80,10,3.88,SO,1698111190
60,whitehorse,60.7161,-135.0538,-7.57,53,20,3.6,CA,1698111190
61,yeniseysk,58.4497,92.1703,-0.77,76,100,5.01,RU,1698111190
62,port saint john's,-31.6229,29.5448,18.26,88,0,5.52,ZA,1698111190
63,kodiak,57.79,-152.4072,6.73,57,0,2.06,US,1698111190
64,bani walid,31.7566,13.9942,25.85,26,0,3.1,LY,1698111191
65,thinadhoo,0.5333,72.9333,27.29,78,97,6.13,MV,1698111191
66,la ronge,55.1001,-105.2842,-4.86,50,20,3.6,CA,1698111191
67,vorkuta,67.5,64.0,-9.82,99,98,0.58,RU,1698111191
68,callao,-12.0667,-77.15,21.51,82,100,7.2,PE,1698111191
69,ngara,-2.5122,30.6558,14.2,84,100,0.64,TZ,1698111191
70,prabumulih,-3.45,104.25,31.16,52,24,1.87,ID,1698111191
71,albany,42.6001,-73.9662,6.89,82,1,0.45,US,1698111082
72,qaqortoq,60.7167,-46.0333,0.9,59,0,4.0,GL,1698111192
73,watampone,-4.5386,120.3279,30.67,60,88,4.29,ID,1698111192
74,jacmel,18.2342,-72.5347,28.91,82,1,1.96,HT,1698111192
75,thompson,55.7435,-97.8558,-2.91,50,75,4.63,CA,1698111192
76,aasiaat,68.7098,-52.8699,-12.96,96,83,5.09,GL,1698111192
77,bodaybo,57.8506,114.1933,0.87,58,100,0.34,RU,1698111192
78,papatowai,-46.5619,169.4708,15.68,57,98,3.34,NZ,1698111192
79,kabinda,-6.1333,24.4833,18.92,89,100,3.52,CD,1698111192
80,keflavik,64.0049,-22.5624,4.24,87,40,2.06,IS,1698111193
81,taoudenni,22.6783,-3.9836,28.15,40,96,6.23,ML,1698111193
82,villa canas,-34.0057,-61.6076,15.41,97,99,3.25,AR,1698111193
83,severnyy,50.677,36.5532,8.02,87,75,7.15,RU,1698111193
84,longyearbyen,78.2186,15.6401,-4.09,80,75,1.54,SJ,1698111193
85,atafu village,-8.5421,-172.5159,28.93,70,19,3.56,TK,1698111193
86,dunedin,-45.8742,170.5036,14.33,78,84,2.24,NZ,1698111011
87,srivardhan,18.0333,73.0167,25.62,62,87,2.6,IN,1698111193
88,gornyye klyuchi,45.25,133.5,13.78,53,7,4.03,RU,1698111193
89,puerto ayora,-0.7393,-90.3518,24.19,94,85,3.13,EC,1698111194
90,pingxiang,27.6167,113.85,25.01,51,39,0.52,CN,1698111194
91,magalia,39.8121,-121.5783,20.75,56,75,3.1,US,1698111194
92,east london,-33.0153,27.9116,17.04,69,4,8.27,ZA,1698111194
93,marilia,-22.2139,-49.9458,24.59,47,99,2.77,BR,1698111194
94,olonkinbyen,70.9221,-8.7187,3.53,86,100,4.42,SJ,1698111194
95,taro,-8.3862,115.28,24.0,48,85,2.0,ID,1698111194
96,vila franca do campo,37.7167,-25.4333,21.05,99,98,6.69,PT,1698111194
97,patterson,37.4716,-121.1297,23.19,55,53,1.61,US,1698111088
98,quartu sant'elena,39.2419,9.1839,22.24,78,20,4.12,IT,1698111195
99,tiksi,71.6872,128.8694,-12.14,89,96,6.62,RU,1698111195
100,prince rupert,54.3161,-130.3201,4.83,61,100,3.6,CA,1698111195
101,miranda do douro,41.4969,-6.2731,9.34,95,7,2.86,PT,1698111195
102,la mira,18.035,-102.3266,24.83,84,10,1.35,MX,1698111195
103,utrik,11.2278,169.8474,28.19,75,100,5.73,MH,1698111195
104,udachny,66.4167,112.4,-12.37,97,100,2.38,RU,1698111195
105,kamiiso,41.8167,140.65,16.21,63,40,1.54,JP,1698111195
106,jinji,23.2281,110.8261,25.95,75,18,2.13,CN,1698111196
107,sabathu,30.9719,76.9933,15.37,62,0,0.0,IN,1698111196
108,timbiqui,2.7717,-77.6654,24.76,94,96,1.42,CO,1698111196
109,flying fish cove,-10.4217,105.6791,26.82,78,75,4.12,CX,1698111196
110,pontes e lacerda,-15.2261,-59.3353,28.02,47,100,1.5,BR,1698111196
111,awjilah,29.1081,21.2869,22.37,29,0,1.75,LY,1698111196
112,yelizovo,53.1873,158.3805,8.08,45,40,8.05,RU,1698111196
113,egilsstadir,65.2653,-14.3948,4.95,87,100,3.09,IS,1698111196
114,coahuayana de hidalgo,18.7,-103.6583,24.72,92,48,1.06,MX,1698111196
115,al lagowa,11.4,29.1333,25.39,42,3,0.81,SD,1698111197
116,ilulissat,69.2167,-51.1,-2.99,74,100,3.09,GL,1698111197
117,serenje,-13.2325,30.2352,18.27,60,43,1.74,ZM,1698111197
118,dudinka,69.4058,86.1778,-3.54,94,100,1.56,RU,1698111197
119,gurupi,-11.7292,-49.0686,24.67,78,96,3.26,BR,1698111197
120,ha tinh,18.3333,105.9,23.43,94,100,3.43,VN,1698111197
121,afaahiti,-17.75,-149.2833,27.93,80,91,5.89,PF,1698111197
122,rincon,32.296,-81.2354,19.36,83,40,3.6,US,1698111197
123,roma,43.2128,-75.4557,6.06,92,0,0.0,US,1698111198
124,damghan,36.1683,54.348,14.76,46,2,0.92,IR,1698111198
125,santa isabel,-23.3156,-46.2214,20.84,93,19,1.19,BR,1698111198
126,crane,31.3974,-102.3501,19.01,91,100,7.24,US,1698111198
127,ponta delgada,37.7333,-25.6667,21.22,94,75,8.75,PT,1698111198
128,bilibino,68.0546,166.4372,-6.19,90,100,5.23,RU,1698111198
129,dalandzadgad,43.5708,104.425,13.23,20,65,3.16,MN,1698111198
130,contamana,-7.3333,-75.0167,27.87,59,88,1.43,PE,1698111198
131,ixtapa,20.7,-105.2,28.57,70,75,2.57,MX,1698111198
132,shaowu,27.3409,117.4831,25.35,65,85,0.57,CN,1698111199
133,hasaki,35.7333,140.8333,22.38,58,0,0.35,JP,1698111199
134,mount gambier,-37.8333,140.7667,11.14,77,100,6.93,AU,1698111048
135,praia da vitoria,38.7333,-27.0667,21.14,78,20,4.7,PT,1698111199
136,lazaro cardenas,17.9583,-102.2,25.58,80,9,1.15,MX,1698111199
137,pangai,-19.8,-174.35,26.06,61,75,5.66,TO,1698111199
138,inhambane,-23.865,35.3833,20.4,88,0,0.5,MZ,1698111199
139,tamanrasset,22.785,5.5228,20.95,18,0,2.57,DZ,1698111199
140,den burg,53.0542,4.7972,11.11,94,75,8.23,NL,1698111199
141,haiku-pauwela,20.9219,-156.3051,29.03,66,20,10.29,US,1698111200
142,timbuktu,16.7735,-3.0074,30.15,12,18,3.32,ML,1698111200
143,port alfred,-33.5906,26.891,16.21,84,46,3.13,ZA,1698111200
144,oliva de la frontera,38.276,-6.9187,9.48,94,2,0.9,ES,1698111200
145,bikin,46.8161,134.26,11.26,58,100,3.89,RU,1698111200
146,port elizabeth,-33.918,25.5701,16.29,80,0,10.29,ZA,1698111087
147,nguigmi,14.2495,13.1092,26.48,20,1,5.18,NE,1698111200
148,linxi,39.7,118.4333,14.95,43,1,0.46,CN,1698111200
149,tolanaro,-25.0319,46.9987,22.04,83,75,2.06,MG,1698111200
150,saint-felix-de-valois,46.1668,-73.4324,7.18,90,9,1.57,CA,1698111200
151,celestun,20.8667,-90.4,27.0,77,100,6.32,MX,1698111201
152,bredasdorp,-34.5322,20.0403,13.46,85,5,3.69,ZA,1698111201
153,sao joao da barra,-21.6403,-41.0511,22.1,87,45,6.1,BR,1698111201
154,twon-brass,4.3151,6.2418,26.73,84,100,4.37,NG,1698111201
155,puerto san jose,13.9256,-90.8244,26.63,83,100,1.59,GT,1698111201
156,isafjordur,66.0755,-23.124,3.34,76,100,1.5,IS,1698111201
157,sicuani,-14.2694,-71.2261,8.27,82,100,0.8,PE,1698111201
158,morshansk,53.4435,41.8107,9.62,92,100,6.23,RU,1698111201
159,hermanus,-34.4187,19.2345,15.12,82,56,4.85,ZA,1698111202
160,katsuura,35.1333,140.3,20.73,63,0,1.19,JP,1698111202
161,kyabe,9.4515,18.9449,24.7,65,99,1.74,TD,1698111202
162,kudahuvadhoo,2.6708,72.8944,27.62,74,58,5.07,MV,1698111202
163,sikasso,10.9167,-7.0,25.89,60,7,2.33,ML,1698111202
164,happy valley-goose bay,53.3168,-60.3315,-2.83,80,20,2.06,CA,1698111202
165,leca da palmeira,41.191,-8.7003,14.5,88,75,4.12,PT,1698111202
166,neiafu,-18.65,-173.9833,25.38,65,75,4.63,TO,1698111202
167,dubbo,-32.25,148.6167,28.07,17,0,3.6,AU,1698111203
168,boda,4.3189,17.4695,21.2,95,100,0.58,CF,1698111203
169,almenara,-16.1836,-40.6944,21.73,83,99,1.14,BR,1698111203
170,carnarvon,-24.8667,113.6333,24.28,35,99,3.35,AU,1698111203
171,lihue,21.9789,-159.3672,28.19,74,75,5.66,US,1698111203
172,college,64.8569,-147.8028,-3.03,84,75,1.54,US,1698111037
173,shambu,9.5667,37.1,10.51,88,37,0.85,ET,1698111203
174,meulaboh,4.1363,96.1285,26.22,83,77,0.87,ID,1698111203
175,broken hill,-31.95,141.4333,26.1,27,42,7.07,AU,1698111204
176,parambu,-6.2111,-40.6944,26.49,48,49,1.01,BR,1698111204
177,nova xavantina,-14.6667,-52.35,30.9,45,100,3.33,BR,1698111204
178,fort st. john,56.2499,-120.8529,-8.06,79,100,4.63,CA,1698111204
179,jabat,7.75,168.9751,28.94,76,49,5.67,MH,1698111204
180,yokadouma,3.5167,15.05,20.51,99,100,0.7,CM,1698111204
181,les anglais,18.3054,-74.2197,27.25,81,3,1.5,HT,1698111204
182,mount isa,-20.7333,139.5,35.87,12,0,3.09,AU,1698111204
183,dunda,-8.1167,34.25,18.53,60,86,0.78,TZ,1698111205
184,caleta de carquin,-11.0925,-77.6267,20.0,88,70,5.69,PE,1698111205
185,pingzhuang,42.0372,119.2889,16.01,27,0,1.05,CN,1698111205
186,myeik,12.4333,98.6,26.35,86,95,1.94,MM,1698111205
187,aktau,43.65,51.2,7.32,65,47,5.73,KZ,1698111205
188,malvan,16.0667,73.4667,25.84,64,0,1.97,IN,1698111205
189,sao vicente,-23.9631,-46.3919,26.82,54,42,2.68,BR,1698111205
190,sovetskaya gavan',48.9723,140.2878,11.88,45,28,2.32,RU,1698111205
191,chernyshevskiy,63.0128,112.4714,-5.14,86,100,4.16,RU,1698111205
192,yeppoon,-23.1333,150.7333,30.88,61,0,6.14,AU,1698111206
193,demba,-5.51,22.2667,20.8,99,100,1.16,CD,1698111206
194,georgetown,5.4112,100.3354,28.96,86,20,3.6,MY,1698111106
195,colonia,50.9333,6.95,13.4,86,20,5.14,DE,1698110988
196,shizuishan,39.2333,106.7694,15.4,18,11,2.98,CN,1698111206
197,fortuna,40.5982,-124.1573,13.85,90,75,5.14,US,1698111206
198,guerrero negro,27.9769,-114.0611,19.18,72,0,7.09,MX,1698111206
199,shubarkuduk,49.1447,56.4872,5.58,59,100,7.54,KZ,1698111206
200,si satchanalai,17.5169,99.7598,25.88,86,42,1.37,TH,1698111206
201,sechura,-5.5569,-80.8222,21.22,80,12,6.34,PE,1698111206
202,al jawf,29.5,38.75,22.31,47,25,4.51,SA,1698111207
203,fale old settlement,-9.3852,-171.2468,28.74,69,12,3.27,TK,1698111207
204,kapa'a,22.0752,-159.319,28.6,74,75,5.66,US,1698111207
205,mandan,46.8267,-100.8896,7.56,94,75,4.12,US,1698111200
206,remire-montjoly,4.9167,-52.2667,27.02,89,20,0.0,GF,1698111207
207,ancud,-41.8697,-73.8203,7.97,92,2,2.78,CL,1698111207
208,bluefields,12.0137,-83.7635,23.85,97,100,1.23,NI,1698111207
209,nueva gerona,21.8833,-82.8,27.15,72,83,7.15,CU,1698111207
210,abaza,52.655,90.0928,-1.39,63,80,3.16,RU,1698111207
211,sidi amrane,33.4989,6.008,26.56,25,69,2.11,DZ,1698111207
212,chetwayi,10.5333,76.05,25.21,88,39,2.63,IN,1698111208
213,mar del plata,-38.0023,-57.5575,12.83,98,100,8.23,AR,1698111004
214,onega,63.9061,38.1404,-0.37,85,11,3.35,RU,1698111208
215,belokurikha,51.9959,84.9896,0.54,54,100,1.72,RU,1698111208
216,novyy urengoy,66.0833,76.6333,-3.18,86,12,4.53,RU,1698111208
217,chonchi,-42.6128,-73.8092,9.56,97,12,1.63,CL,1698111208
218,schwerin,53.6294,11.4132,8.97,96,100,2.68,DE,1698111208
219,banos,-1.4,-78.4167,17.59,94,66,0.33,EC,1698111208
220,las khorey,11.1595,48.1967,28.3,71,29,1.7,SO,1698111208
221,lucas,41.6501,-83.6666,12.27,78,0,3.09,US,1698111208
222,selfoss,63.9331,-20.9971,-1.09,75,100,2.18,IS,1698111209
223,lloydminster,53.2835,-110.0016,-6.88,45,75,2.06,CA,1698111093
224,grootfontein,-19.5667,18.1167,21.22,16,1,7.16,NA,1698111209
225,kuanda,56.3161,116.0806,1.11,60,61,1.14,RU,1698111209
226,touros,-5.1989,-35.4608,25.31,78,93,5.78,BR,1698111209
227,armacao de buzios,-22.7469,-41.8817,21.15,90,12,7.76,BR,1698111209
228,unna,51.5333,7.6833,14.12,85,75,5.66,DE,1698110619
229,kill devil hills,36.0307,-75.676,15.55,67,0,3.09,US,1698111209
230,avarua,-21.2078,-159.775,24.03,78,75,2.06,CK,1698111209
231,vadso,70.0744,29.7487,0.49,86,75,5.14,NO,1698111210
232,codrington,-38.2667,141.9667,16.09,52,4,13.11,AU,1698111210
233,kairouan,35.6781,10.0963,22.01,94,75,1.03,TN,1698111210
234,axim,4.8699,-2.2405,25.09,87,41,2.19,GH,1698111210
235,tindouf,27.6711,-8.1474,19.74,59,82,1.51,DZ,1698111210
236,coquimbo,-29.9533,-71.3436,13.85,88,0,4.12,CL,1698111210
237,sinabang,2.4803,96.3801,26.02,82,99,1.05,ID,1698111210
238,port mathurin,-19.6833,63.4167,24.47,81,22,6.68,MU,1698111210
239,kruisfontein,-34.0033,24.7314,14.25,75,49,8.27,ZA,1698111210
240,ende,-8.8432,121.6623,31.73,51,44,0.98,ID,1698111210
241,coteau-du-lac,45.3001,-74.1825,7.15,85,7,2.59,CA,1698111211
242,sao felix do xingu,-6.6447,-51.995,22.28,98,100,0.38,BR,1698111211
243,bokoro,12.3807,17.0568,27.71,18,56,4.33,TD,1698111211
244,kaoma,-14.7833,24.8,25.6,43,81,5.21,ZM,1698111211
245,kununurra,-15.7667,128.7333,32.99,55,0,2.57,AU,1698111018
246,ujae,8.9322,165.7642,28.71,79,99,6.73,MH,1698111211
247,iquitos,-3.7481,-73.2472,27.02,89,75,0.51,PE,1698111211
248,daegu,35.8,128.55,12.47,76,0,0.51,KR,1698111211
249,limassol,34.675,33.0333,22.04,53,0,1.54,CY,1698111211
250,narrabri,-30.3167,149.7833,33.07,12,5,2.68,AU,1698111212
251,hami,42.8,93.45,13.57,28,79,3.81,CN,1698111212
252,doume,4.2333,13.45,20.24,99,100,0.97,CM,1698111212
253,tocopilla,-22.092,-70.1979,19.57,71,14,3.08,CL,1698111073
254,el calafate,-50.3408,-72.2768,9.7,67,0,2.36,AR,1698111212
255,rujiena,57.8975,25.3316,3.92,89,99,1.29,LV,1698111212
256,st. john's,47.5649,-52.7093,6.65,92,75,8.94,CA,1698111002
257,kayangel,8.0823,134.7173,28.5,75,100,2.78,PW,1698111212
258,azna,33.6095,48.9307,12.83,40,46,0.64,IR,1698111212
259,as sulayyil,20.4607,45.5779,21.14,34,6,1.92,SA,1698111213
260,daoukro,7.0591,-3.9631,23.42,97,100,1.73,CI,1698111213
261,caconda,-13.7333,15.0667,18.3,70,41,1.0,AO,1698111213
262,chanute,37.6792,-95.4572,23.12,73,0,5.66,US,1698111213
263,waingapu,-9.6567,120.2641,30.69,55,12,4.28,ID,1698111213
264,bridgetown,13.1,-59.6167,27.27,89,40,4.12,BB,1698111075
265,belyy yar,53.6039,91.3903,-0.06,64,0,6.0,RU,1698111213
266,tara,56.8944,74.371,-2.39,88,71,4.13,RU,1698111213
267,le port,-20.9373,55.2919,23.0,85,98,5.55,RE,1698111213
268,port douglas,-16.4833,145.4667,26.26,61,9,3.27,AU,1698111214
269,sitka,57.0531,-135.33,1.94,32,0,3.09,US,1698111214
270,bac lieu,9.285,105.7244,28.35,74,99,1.97,VN,1698111214
271,minas de marcona,-15.2119,-75.1103,14.73,92,96,5.36,PE,1698111214
272,la passe,45.5549,-0.8967,13.32,77,100,4.29,FR,1698111214
273,badger,64.8,-147.5333,-3.07,86,75,1.54,US,1698111214
274,sola,-13.8833,167.55,25.37,83,100,10.29,VU,1698111214
275,grants pass,42.439,-123.3284,17.39,61,0,3.6,US,1698111005
276,minot,48.2325,-101.2963,6.12,87,100,4.12,US,1698111215
277,keelung,25.1283,121.7419,28.94,75,25,3.33,TW,1698111215
278,novofedorivka,46.1713,32.3178,14.99,67,100,3.75,UA,1698111215
279,san blas atempa,16.3264,-95.2225,25.82,82,44,0.52,MX,1698111215
280,vilyuchinsk,52.9306,158.4028,8.15,55,10,5.32,RU,1698111215
281,naze,28.3667,129.4833,24.51,62,16,3.86,JP,1698111215
282,truckee,39.328,-120.1833,14.18,63,75,0.0,US,1698111026
283,jinchang,38.4953,102.1739,14.42,14,0,0.89,CN,1698111215
284,cleveland,41.4995,-81.6954,11.48,74,75,2.06,US,1698110350
285,moranbah,-22.0016,148.0466,34.52,21,0,3.08,AU,1698111215
286,balabac,7.9868,117.0645,28.46,74,100,0.99,PH,1698111215
287,byron bay,-28.65,153.6167,27.44,60,0,8.3,AU,1698111216
288,prado,-17.3411,-39.2208,21.89,79,80,2.39,BR,1698111216
289,tot'ma,59.9747,42.7642,-3.13,84,100,2.3,RU,1698111216
290,newman,37.3138,-121.0208,23.19,55,51,0.89,US,1698111216
291,saint-pierre,-21.3393,55.4781,22.82,68,0,3.09,RE,1698111216
292,nuku'alofa,-21.1333,-175.2,25.19,57,75,7.2,TO,1698111216
293,punta arenas,-53.15,-70.9167,9.06,66,0,4.63,CL,1698111079
294,gadzhiyevo,69.2551,33.3362,0.74,75,100,4.33,RU,1698111216
295,issenye,-2.0,34.3333,20.17,61,95,1.46,TZ,1698111216
296,quellon,-43.1167,-73.6167,7.52,90,12,2.46,CL,1698111080
297,china,25.7,-99.2333,27.6,61,94,12.65,MX,1698110970
298,alofi,-19.0595,-169.9187,25.94,61,75,6.69,NU,1698111217
299,peterhead,57.5058,-1.7981,10.22,77,100,6.96,GB,1698111217
300,harper,4.375,-7.7169,25.0,89,100,3.58,LR,1698111217
301,port blair,11.6667,92.75,26.02,94,40,0.0,IN,1698111002
302,port lincoln,-34.7333,135.8667,14.3,53,98,9.48,AU,1698111217
303,urk,52.6625,5.6014,11.77,96,100,7.33,NL,1698111217
304,banda aceh,5.5577,95.3222,27.69,72,28,0.54,ID,1698111217
305,kelty,56.1336,-3.3869,10.03,92,100,1.79,GB,1698111217
306,ormara,25.2088,64.6357,26.37,76,0,2.16,PK,1698111217
307,rajapur,25.3833,81.15,22.22,49,1,0.81,IN,1698111218
308,klaksvik,62.2266,-6.589,5.51,78,100,4.44,FO,1698111218
309,igarka,67.4667,86.5833,-5.99,89,100,3.2,RU,1698111218
310,san luis de la loma,17.2706,-100.8939,25.82,86,19,1.38,MX,1698111218
311,sao miguel do araguaia,-13.275,-50.1628,26.32,68,93,3.93,BR,1698111218
312,san borja,-14.8167,-66.85,35.45,25,84,2.89,BO,1698111218
313,pajapan,18.25,-94.7,25.09,91,100,2.15,MX,1698111218
314,cambridge,43.3601,-80.3127,9.63,83,75,3.09,CA,1698111011
315,dawei,14.0833,98.2,28.09,77,63,1.18,MM,1698111218
316,san patricio,28.017,-97.5169,27.14,76,10,7.57,US,1698111218
317,san antonio de pale,-1.4014,5.6325,26.04,82,100,7.69,GQ,1698111218
318,hovd,48.0056,91.6419,4.43,34,100,2.96,MN,1698111219
319,newport,51.5877,-2.9984,11.54,90,100,1.6,GB,1698111219
320,eyl,7.9803,49.8164,27.04,82,28,2.37,SO,1698111219
321,nova sintra,14.8667,-24.7167,24.36,68,7,4.28,CV,1698111219
322,uturoa,-16.7333,-151.4333,26.92,79,95,5.85,PF,1698111219
323,angaur state,6.906,134.13,28.92,69,94,1.22,PW,1698111219
324,berdigestyakh,62.0989,126.6992,-3.34,91,100,2.53,RU,1698111219
325,nemuro,43.3236,145.575,12.19,61,12,5.46,JP,1698111219
326,belek,36.8628,31.0556,18.28,41,1,2.63,TR,1698111219
327,luau,-10.7073,22.2247,19.51,89,100,1.57,AO,1698111220
328,karaidel',55.8337,56.9069,1.44,98,100,5.73,RU,1698111220
329,chui,-33.6971,-53.4616,17.86,99,100,3.79,UY,1698111220
330,hirara,24.8,125.2833,27.15,78,75,4.12,JP,1698111220
331,labrador city,52.9463,-66.9114,-3.05,86,0,2.57,CA,1698111220
332,masonboro,34.1793,-77.8475,13.9,85,0,0.0,US,1698111220
333,guangyuan,32.442,105.823,18.53,72,100,1.11,CN,1698111220
334,capo d'orlando,38.1435,14.7305,23.01,54,8,1.74,IT,1698111220
335,sogndal,61.2283,7.1003,5.21,80,100,1.03,NO,1698111220
336,lillehammer,61.1146,10.4674,0.81,95,19,0.42,NO,1698111221
337,brokopondo,4.75,-55.1667,26.7,80,100,3.99,SR,1698111221
338,puerto baquerizo moreno,-0.9,-89.6,23.88,87,96,5.52,EC,1698111148
339,pangody,65.85,74.4859,-4.97,96,32,4.22,RU,1698111221
340,glace bay,46.1969,-59.957,8.31,79,75,10.29,CA,1698111221
341,cestos city,5.46,-9.5828,25.28,89,46,3.16,LR,1698111221
342,gebeit,21.0667,36.3167,23.63,59,0,2.63,SD,1698111221
343,khed,17.7167,73.3833,23.69,65,74,1.89,IN,1698111221
344,mata-utu,-13.2816,-176.1745,27.65,79,34,7.39,WF,1698111221
345,mejit,10.2753,170.8646,28.14,77,97,4.42,MH,1698111221
346,wuyang,31.9925,116.2472,22.43,42,59,1.24,CN,1698111222
347,murun-kuren,49.6342,100.1625,7.25,46,3,6.35,MN,1698111222
348,leninskoye,41.7589,69.3864,9.32,73,12,1.6,KZ,1698111222
349,zaozersk,69.4005,32.4476,-2.07,88,89,2.49,RU,1698111222
350,ione,38.3527,-120.9327,22.26,72,0,3.09,US,1698111222
351,daga,27.0753,89.8769,16.46,49,100,1.2,BT,1698111222
352,abu jibeha,11.4562,31.2285,25.15,63,68,0.89,SD,1698111222
353,la foa,-21.7108,165.8276,24.32,66,87,1.93,NC,1698111222
354,huntingdon,52.3305,-0.1865,10.7,89,100,2.45,GB,1698111222
355,lauro de freitas,-12.8944,-38.3272,26.01,78,75,4.12,BR,1698110966
356,buta,2.7858,24.73,21.36,97,100,0.5,CD,1698111223
357,mian channun,30.44,72.3543,22.3,55,0,1.62,PK,1698111223
358,buala,-8.145,159.5921,27.92,79,100,2.52,SB,1698111223
359,tura,25.5198,90.2201,22.2,89,100,1.14,IN,1698111223
360,quinte west,44.1834,-77.5662,5.78,90,75,0.0,CA,1698111223
361,westport,41.1415,-73.3579,11.9,77,0,1.79,US,1698110949
362,karratha,-20.7377,116.8463,36.43,14,0,4.85,AU,1698111223
363,fontanelas,38.8472,-9.4372,14.29,83,1,4.79,PT,1698111223
364,napili-honokowai,20.9708,-156.6705,29.66,67,2,6.09,US,1698111223
365,hamilton,39.1834,-84.5333,14.56,69,0,3.6,US,1698111121
366,huarmey,-10.0681,-78.1522,20.54,86,67,4.38,PE,1698111224
367,tarawa,1.419,172.984,33.05,66,40,3.6,KI,1698111224
368,puerto deseado,-47.7503,-65.8938,8.35,76,0,7.78,AR,1698111224
369,akonolinga,3.7667,12.25,19.96,99,98,0.81,CM,1698111224
370,porecatu,-22.7558,-51.3792,26.62,46,100,2.87,BR,1698111224
371,yuzhno-kurilsk,44.0306,145.8556,12.42,57,4,5.23,RU,1698111224
372,nuea khlong,8.0714,98.9993,26.08,94,20,1.54,TH,1698111224
373,muscat,23.6139,58.5922,27.01,60,100,1.24,OM,1698111224
374,kralendijk,12.15,-68.2667,28.99,84,20,3.6,BQ,1698111225
375,isangel,-19.55,169.2667,26.06,73,100,4.63,VU,1698111225
376,toliara,-23.35,43.6667,21.67,86,0,2.01,MG,1698111225
377,jalai nur,49.45,117.7,8.35,33,6,4.9,CN,1698111225
378,khulm,36.6974,67.6983,15.74,51,0,2.74,AF,1698111225
379,mislinja,46.4411,15.1956,14.82,71,100,2.41,SI,1698111225
380,buka,40.8108,69.1986,10.47,86,12,0.06,UZ,1698111225
381,kalaleh,37.3807,55.4916,19.07,43,0,2.04,IR,1698111225
382,pasir mas,6.0493,102.1399,26.94,83,85,1.22,MY,1698111225
383,camapua,-19.5314,-54.0439,30.24,40,100,1.32,BR,1698111226
384,nishinoomote,30.7333,131.0,20.31,72,75,4.63,JP,1698111226
385,robbah,33.2797,6.9098,26.36,24,22,4.61,DZ,1698111226
386,ortakoy,38.7373,34.0387,9.14,54,0,0.67,TR,1698111226
387,khorinsk,52.1657,109.7726,4.64,64,59,1.61,RU,1698111226
388,yoloten,37.2989,62.3597,14.8,56,0,4.11,TM,1698111226
389,langres,47.8333,5.3333,9.0,98,97,3.14,FR,1698111226
390,rongelap,11.1635,166.8941,28.75,76,55,6.46,MH,1698111226
391,kalix,65.853,23.1565,-4.57,74,1,3.24,SE,1698111227
392,usogorsk,63.4106,48.6872,-3.27,90,21,2.92,RU,1698111227
393,cidreira,-30.1811,-50.2056,19.34,97,100,3.29,BR,1698111227
394,taltal,-25.4,-70.4833,18.09,71,0,2.44,CL,1698111227
395,linxia chengguanzhen,35.6003,103.2064,11.59,56,100,1.02,CN,1698111227
396,mahmutlar,36.949,36.1923,22.7,44,7,2.47,TR,1698111227
397,klyuchi,52.2667,79.1667,0.25,61,100,6.07,RU,1698111227
398,las rosas,-32.4766,-61.5804,17.14,93,100,6.55,AR,1698111227
399,sainyabuli,19.25,101.75,26.1,67,7,0.81,LA,1698111227
400,bengkulu,-3.8004,102.2655,27.29,73,15,2.2,ID,1698111227
401,black river,18.0264,-77.8487,26.91,83,86,2.31,JM,1698111228
402,tazacorte,28.629,-17.9293,20.54,77,100,4.12,ES,1698111228
403,malango,-2.9627,119.9001,26.96,64,30,1.89,ID,1698111228
404,yerofey pavlovich,53.9667,121.9667,2.54,57,2,1.14,RU,1698111228
405,azul,-36.777,-59.8585,13.42,91,100,4.8,AR,1698111228
406,nagqu,31.5,92.0,-2.34,72,100,1.42,CN,1698111228
407,dynow,49.8151,22.2339,9.43,90,77,1.93,PL,1698111228
408,jesup,31.6074,-81.8854,16.3,88,0,0.0,US,1698111228
409,arraial do cabo,-22.9661,-42.0278,21.44,89,7,9.64,BR,1698111229
410,gornopravdinsk,60.05,69.9,-3.01,84,100,4.11,RU,1698111229
411,beyneu,45.3167,55.2,6.73,65,90,5.97,KZ,1698111229
412,port isabel,26.0734,-97.2086,27.26,78,0,6.69,US,1698111229
413,raduzhny,62.0961,77.475,-2.55,88,100,5.28,RU,1698110978
414,ironwood,46.4547,-90.171,9.9,81,100,4.12,US,1698111229
415,abong mbang,3.9833,13.1833,19.81,99,100,0.8,CM,1698111229
416,elva,58.2225,26.4211,4.08,95,100,1.03,EE,1698111229
417,bantay,17.5847,120.3892,28.31,69,77,1.32,PH,1698111229
418,rio preto da eva,-2.6994,-59.6997,25.3,81,94,1.07,BR,1698111229
419,ibiza,38.9088,1.433,21.9,80,40,11.32,ES,1698111060
420,dakhla,23.6848,-15.958,21.57,84,43,6.91,EH,1698111230
421,mossel bay,-34.1831,22.146,14.96,74,21,5.52,ZA,1698111230
422,odda,60.0691,6.5457,8.21,90,71,2.14,NO,1698111230
423,regina,50.4501,-104.6178,-0.94,83,100,4.63,CA,1698110671
424,enewetak,11.3474,162.3373,28.43,75,100,2.98,MH,1698111230
425,zholymbet,51.7433,71.7122,0.19,65,100,7.87,KZ,1698111230
426,east tamworth,-31.0894,150.9436,29.77,12,1,5.14,AU,1698111230
427,midelt,32.6852,-4.7451,10.4,79,47,3.46,MA,1698111230
428,nadym,65.5333,72.5167,-5.29,93,19,4.71,RU,1698111230
429,muang khong,14.1167,105.85,25.91,89,100,1.08,LA,1698111231
430,kalkaman,51.9525,76.0211,0.9,61,100,7.09,KZ,1698111231
431,camana,-16.6228,-72.7111,19.4,93,99,4.26,PE,1698110977
432,kokpekty,48.75,82.4,-0.29,72,100,1.78,KZ,1698111231
433,vilhena,-12.7406,-60.1458,25.78,49,72,1.13,BR,1698111231
434,homestead meadows north,31.8496,-106.1729,26.64,31,0,2.06,US,1698111231
435,andalgala,-27.5819,-66.3165,20.51,71,57,0.62,AR,1698111044
436,mo i rana,66.3128,14.1428,1.26,60,100,5.36,NO,1698111231
437,fort bragg,35.139,-79.006,11.19,86,0,0.0,US,1698111231
438,kalmunai,7.4167,81.8167,26.04,81,67,1.03,LK,1698111231
439,barcelos,41.5388,-8.6151,14.36,84,62,2.19,PT,1698111232
440,lompoc,34.6391,-120.4579,20.99,90,100,5.66,US,1698111232
441,kilindoni,-7.9139,39.6668,26.69,81,34,6.23,TZ,1698111232
442,vila velha,-20.3297,-40.2925,23.3,82,75,4.12,BR,1698111012
443,san fernando de apure,7.8878,-67.4724,26.01,79,50,0.18,VE,1698111232
444,abbeville,50.1,1.8333,10.7,96,76,3.03,FR,1698111016
445,port hueneme,34.1478,-119.1951,22.48,70,0,2.57,US,1698111024
446,tabira,-7.5908,-37.5394,23.41,50,24,4.29,BR,1698111232
447,tralee,52.2704,-9.7026,8.26,91,29,1.65,IE,1698111232
448,zhalantun,48.0,122.7167,11.12,38,0,6.24,CN,1698111232
449,kidal,18.4411,1.4078,28.02,15,0,4.99,ML,1698111232
450,pathein,16.7833,94.7333,26.65,87,99,2.41,MM,1698111233
451,abdulino,53.7,53.6667,5.54,85,100,7.58,RU,1698111233
452,levokumskoye,44.8219,44.6606,15.27,69,100,2.22,RU,1698111233
453,akureyri,65.6835,-18.0878,-1.04,100,100,2.06,IS,1698111233
454,polyarnyy,69.1989,33.4478,1.02,76,99,4.47,RU,1698111233
455,ellenabad,29.45,74.65,22.62,52,0,1.49,IN,1698111233
456,petropavlovsk-kamchatsky,53.0452,158.6483,7.33,46,40,8.0,RU,1698111233
457,al jubayl,27.0112,49.6583,28.73,63,100,4.04,SA,1698110994
458,sampit,-2.5333,112.95,27.66,83,100,1.22,ID,1698110976
459,bathsheba,13.2167,-59.5167,27.34,89,40,4.12,BB,1698111234
460,richfield,44.8833,-93.283,14.71,83,40,3.6,US,1698111169
461,sisimiut,66.9395,-53.6735,-5.48,73,48,7.8,GL,1698111234
462,tumpat,6.1978,102.171,26.99,83,40,4.63,MY,1698111234
463,belinskiy,52.9647,43.4165,9.89,93,100,6.12,RU,1698111234
464,wuwei,37.9281,102.6414,14.47,18,8,0.41,CN,1698111234
465,tsiombe,-25.3,45.4833,19.79,83,5,2.91,MG,1698111234
466,taroa,8.7058,171.2275,28.23,76,38,3.92,MH,1698111234
467,piedras negras,28.7,-100.5167,26.82,66,100,4.67,MX,1698111234
468,mogocha,53.7333,119.7667,3.03,61,10,1.38,RU,1698111234
469,hammerfest,70.6634,23.6821,-2.75,93,45,0.0,NO,1698111235
470,tabuk,17.4189,121.4443,27.97,76,53,1.16,PH,1698111235
471,ballina,-28.8667,153.5667,27.22,61,3,7.56,AU,1698111235
472,helston,50.1032,-5.2705,12.11,82,40,5.14,GB,1698111235
473,cabo san lucas,22.8909,-109.9124,27.61,75,0,5.66,MX,1698110721
474,kluczbork,50.9728,18.2182,7.77,79,75,3.18,PL,1698111235
475,margate,51.3813,1.3862,10.39,92,100,0.89,GB,1698111235
476,lorengau,-2.0226,147.2712,28.18,80,88,3.3,PG,1698111235
477,laguna,38.421,-121.4238,24.16,62,0,0.0,US,1698111077
478,valga,57.7778,26.0473,3.89,94,93,1.52,EE,1698111235
479,bamboo flat,11.7,92.7167,26.05,94,40,0.0,IN,1698111236
480,lascano,-33.6667,-54.2,17.25,98,100,4.86,UY,1698111236
481,istgah-e rah ahan-e garmsar,35.2346,52.3094,18.91,36,81,1.8,IR,1698111236
482,broome,42.2506,-75.833,6.76,80,95,0.74,US,1698111236
483,la gi,10.6667,107.7833,28.15,76,76,1.54,VN,1698111236
484,howard springs,-12.497,131.047,33.26,55,5,2.65,AU,1698111236
485,oroville east,39.5113,-121.4752,23.42,58,0,0.45,US,1698111236
486,pudasjarvi,65.3833,26.9167,-4.99,94,7,1.56,FI,1698111236
487,geraldton,-28.7667,114.6,25.23,22,100,9.77,AU,1698111236
488,hobyo,5.3505,48.5268,27.9,78,73,5.34,SO,1698111237
489,alice springs,-23.7,133.8833,26.75,28,21,5.14,AU,1698111036
490,mwinilunga,-11.7358,24.4293,19.56,71,100,1.35,ZM,1698111237
491,champerico,14.3,-91.9167,27.43,79,46,0.8,GT,1698111237
492,pedernales,18.0384,-71.744,27.82,78,3,0.85,DO,1698111237
493,juneau,58.3019,-134.4197,0.68,70,20,4.63,US,1698111149
494,aioun,16.6614,-9.6149,29.66,40,100,1.58,MR,1698111237
495,kintampo,8.0563,-1.7306,23.76,84,72,3.12,GH,1698111237
496,mitsamiouli,-11.3847,43.2844,25.48,81,7,6.29,KM,1698111237
497,callaway,30.153,-85.5699,22.19,59,0,2.06,US,1698111237
498,big spring,32.2504,-101.4787,19.57,90,100,5.66,US,1698110997
499,metlili chaamba,32.2667,3.6333,24.17,31,68,1.31,DZ,1698111238
500,arkhangel'sk,64.5401,40.5433,0.26,82,11,3.18,RU,1698111238
501,mahdia,35.5047,11.0622,22.97,34,80,3.3,TN,1698111238
502,saint croix,17.7397,-64.7388,28.25,86,20,2.06,VI,1698111238
503,launceston,-41.45,147.1667,17.8,63,92,10.29,AU,1698110971
504,kapuskasing,49.4169,-82.4331,8.05,76,100,5.66,CA,1698111238
505,manggar,-2.8833,108.2667,28.93,67,99,3.83,ID,1698111238
506,christchurch,-43.5333,172.6333,20.11,49,100,1.54,NZ,1698111010
507,korla,41.7597,86.1469,13.63,33,3,2.44,CN,1698111238
508,grand rapids,42.9634,-85.6681,14.53,63,75,9.26,US,1698111239
509,yanam,16.7333,82.2167,26.92,68,100,0.72,IN,1698111239
510,el matama,16.7095,33.3565,31.45,32,8,4.12,SD,1698111239
511,noumea,-22.2763,166.4572,28.99,66,66,6.42,NC,1698111004
512,yuli,9.6989,10.2744,24.41,57,50,1.26,NG,1698111239
513,kurtamysh,54.9103,64.4319,1.07,97,100,6.68,RU,1698111231
514,i-n-salah,27.1935,2.4607,28.97,15,74,2.12,DZ,1698111239
515,xilin hot,43.9667,116.0333,10.38,26,0,3.37,CN,1698111239
516,okha,53.5739,142.9478,6.12,49,72,4.45,RU,1698111239
517,milisauti,47.7833,26.0,12.32,89,55,1.48,RO,1698111239
518,tynemouth,55.0179,-1.4256,10.93,96,100,1.54,GB,1698111239
519,darab,28.7519,54.5444,19.13,48,0,1.4,IR,1698111240
520,colares,38.7992,-9.4469,14.94,83,1,0.45,PT,1698111240
521,namdrik,5.5994,168.1028,29.09,76,99,6.35,MH,1698111240
522,mombetsu,44.3525,143.3525,14.01,58,20,2.06,JP,1698111240
523,tofol,5.3248,163.0078,30.88,79,75,4.12,FM,1698111240
524,yambio,4.5721,28.3955,19.75,99,68,0.75,SS,1698111240
525,ergani,38.2653,39.7621,15.61,58,22,1.11,TR,1698111240
526,faya-largeau,17.9257,19.1043,24.34,18,3,6.88,TD,1698111240
527,cockburn town,21.4612,-71.1419,28.88,76,4,6.39,TC,1698111240
528,zemio,5.0314,25.1361,20.91,98,100,1.52,CF,1698111241
529,letlhakane,-21.4167,25.5833,19.13,66,0,4.75,BW,1698111241
530,piti village,13.4626,144.6933,32.49,76,40,5.66,GU,1698111241
531,nkhata bay,-11.6066,34.2907,24.89,51,2,1.91,MW,1698111241
532,baijiantan,45.6333,85.1833,11.61,41,100,5.8,CN,1698111241
533,meadow lakes,61.6247,-149.6011,2.99,55,0,1.54,US,1698111241
534,urangan,-25.3,152.9,23.55,72,0,5.74,AU,1698111241
535,west end,26.6833,-78.9667,21.99,67,72,7.28,BS,1698111241
536,aylmer,42.7668,-80.983,9.03,71,100,2.16,CA,1698111241
537,napanee,44.2501,-76.9494,6.02,70,100,1.75,CA,1698111242
538,tughyl,47.7252,84.2063,4.86,57,100,1.21,KZ,1698111242
539,tremp,42.167,0.8949,13.15,91,100,0.89,ES,1698111242
540,george,-33.963,22.4617,13.75,82,20,4.63,ZA,1698111242
541,northam,51.0333,-4.2167,10.37,96,2,3.83,GB,1698111242
542,kudus,-6.8048,110.8405,32.2,50,31,3.14,ID,1698111242
543,ta`u,-14.2336,-169.5144,26.94,73,87,5.59,AS,1698111242
544,alaghsas,17.0187,8.0168,26.02,16,0,5.13,NE,1698111242
545,yaya,56.206,86.44,-0.78,78,100,6.93,RU,1698111243
546,nuriootpa,-34.4833,139.0,16.94,40,100,10.16,AU,1698111243
547,essaouira,31.5125,-9.77,15.72,100,75,2.06,MA,1698111243
548,puerto quijarro,-17.7833,-57.7667,30.11,40,27,0.53,BO,1698111243
549,kalengwa,-13.4659,25.0027,20.67,57,90,2.22,ZM,1698111243
550,balykshi,47.0667,51.8667,7.0,93,100,5.0,KZ,1698111243
551,kipushi,-11.7667,27.2333,19.22,72,97,2.13,CD,1698111243
552,okhotsk,59.3833,143.3,-6.16,75,7,5.5,RU,1698111243
553,cuito,-12.3833,16.9333,19.02,50,87,1.31,AO,1698111244
554,dalhart,36.0595,-102.5133,22.01,53,0,9.26,US,1698111244
555,bagaha,27.1,84.0833,21.92,69,0,1.84,IN,1698111244
556,shitanjing,39.2342,106.3439,14.48,18,21,2.46,CN,1698111244
557,fairview,40.8126,-73.999,13.57,62,0,2.06,US,1698111244
558,chiquimulilla,14.0858,-90.3767,23.89,94,100,1.26,GT,1698111244
559,garoowe,8.4054,48.4845,24.35,81,30,3.32,SO,1698111244
560,aykhal,66.0,111.5,-10.66,100,100,2.56,RU,1698111244
561,mugango,-1.6833,33.7,21.97,73,88,2.42,TZ,1698111244
562,salinopolis,-0.6136,-47.3561,26.8,75,96,5.2,BR,1698111245
563,nogliki,51.8333,143.1667,8.33,63,55,5.1,RU,1698111245
564,colonia rincon viejo,16.9,-95.05,24.05,90,23,0.42,MX,1698111245
565,sokoni,-6.4333,39.55,26.9,81,94,6.66,TZ,1698111245
566,nayoro,44.3506,142.4578,12.45,61,33,3.81,JP,1698111245
567,gilgit,35.9221,74.3087,12.98,61,100,0.61,PK,1698111245
568,hono,57.6897,11.6497,9.6,99,100,5.45,SE,1698111245
569,fonte boa,-2.4959,-66.2662,23.99,93,100,1.3,BR,1698111245
570,amphoe sikhiu,14.8994,101.7083,25.63,80,100,4.49,TH,1698111246
571,kirensk,57.7853,108.1119,3.62,94,100,4.3,RU,1698111246
572,tchintabaraden,15.8969,5.7985,27.85,15,4,4.47,NE,1698111246
573,kalianget,-7.05,113.9333,29.24,64,50,3.79,ID,1698111246
574,bridgewater,44.3835,-64.5155,7.82,87,15,5.66,CA,1698111246
575,alesund,62.4723,6.1549,7.22,96,20,2.57,NO,1698111246
